latitude,longitude,year,quarter,maize_uga,maize_usd,LOC_NAME
0.467,34.09,2011,4,622.61,.2654,Busia-Samia-bugwe
0.322805,32.574841,2011,4,661.67,.2606333333333333,Kampala-Central Kampala
0.424444,33.204167,2011,4,,,Jinja-Jinja Municipality
0.916111,31.774167,2011,4,,,Kyankwanzi-Kiboga
2.235,32.909722,2011,4,654.76,.2665,Lira-Lira Municipality
-0.605675,30.64855,2011,4,,,Mbarara-Mbarara Municipality
0.609167,33.468611,2011,4,,,Iganga-Kigulu
2.766667,32.305556,2011,4,,,Gulu-Gulu Municipality
